[
    {
        "name": "欧东花民族服饰博物馆",
        "type": "苗绣展示馆",
        "lng": "107.975064",
        "lat": "26.555437"
    },
    {
        "name": "黔东南苗妹非遗博物馆",
        "type": "苗绣展示馆",
        "lng": "107.840725",
        "lat": "26.50184"
    },
    {
        "name": "台江苗族刺绣博物馆",
        "type": "苗绣展示馆",
        "lng": "108.316959",
        "lat": "26.669605"
    },
    {
        "name": "苗韵风采民族服饰博物馆",
        "type": "苗绣展示馆",
        "lng": "108.161996",
        "lat": "26.494005"
    },
    {
        "name": "西江苗族博物馆",
        "type": "苗绣展示馆",
        "lng": "108.173944",
        "lat": "26.492933"
    },
    {
        "name": "中国民族博物馆",
        "type": "苗绣展示馆",
        "lng": "108.17205",
        "lat": "26.496676"
    },
    {
        "name": "中国凯里民族文化产业园",
        "type": "苗绣体验地",
        "lng": "107.973588",
        "lat": "26.566244"
    },
    {
        "name": "贵州凯里民族民间工艺品交易基地",
        "type": "苗绣体验地",
        "lng": "107.97379",
        "lat": "26.553613"
    },
    {
        "name": "凯里苗侗风情园示范区",
        "type": "苗绣体验地",
        "lng": "107.97589",
        "lat": "26.555629"
    },
    {
        "name": "雷山民族文化示范基地",
        "type": "苗绣体验地",
        "lng": "108.080293",
        "lat": "26.390884"
    },
    {
        "name": "台江姊妹街",
        "type": "苗绣体验地",
        "lng": "108.32012",
        "lat": "26.66786"
    },
    {
        "name": "丹寨万达小镇",
        "type": "苗绣体验地",
        "lng": "108.32012",
        "lat": "26.66786"
    },
    {
        "name": "西江千户苗寨景区",
        "type": "苗绣体验地",
        "lng": "108.17458",
        "lat": "26.49347"
    },
    {
        "name": "舞水云台非遗苗绣传承馆",
        "type": "苗绣展示馆",
        "lng": "108.134592",
        "lat": "27.004675"
    },
    {
        "name": "浩邓苗族民间博物馆",
        "type": "苗绣展示馆",
        "lng": "108.319966",
        "lat": "26.667794"
    },
    {
        "name": "摆贝苗族刺绣、蜡染技艺传习所",
        "type": "苗绣体验地",
        "lng": "108.163465",
        "lat": "25.855716"
    },
    {
        "name": "报京余珍风情园",
        "type": "苗绣体验地",
        "lng": "108.43027",
        "lat": "27.079206"
    },
    {
        "name": "雷山西江春花苗族服饰刺绣博物馆",
        "type": "苗绣展示馆",
        "lng": "108.172341",
        "lat": "26.495789"
    }
]