[{"province": "贵州省", "city": "黔东南苗族侗族自治州", "area": "凯里市", "address": "贵州省黔东南苗族侗族自治州凯里市清江路38号", "name": "凯里市梅香手工刺绣厂(非遗苗绣工作室)", "lng": 107.980065, "lat": 26.605415},
{"province": "贵州省", "city": "黔东南苗族侗族自治州", "area": "凯里市", "address": "凯棠镇梅香村", "name": "凯里市苗乡锦绣刺绣农民专业合作社", "lng": 108.151699, "lat": 26.734951},
{"province": "贵州省", "city": "黔东南苗族侗族自治州", "area": "凯里市", "address": "贵州省黔东南苗族侗族自治州凯里市苗央路5号", "name": "黔苗绣艺", "lng": 107.980461, "lat": 26.560658},
{"province": "贵州省", "city": "黔东南苗族侗族自治州", "area": "凯里市", "address": "上马石服务中心旁", "name": "凯里妹旺刺绣农民专业合作社", "lng": 108.028665, "lat": 26.557902},
{"province": "贵州省", "city": "黔东南苗族侗族自治州", "area": "锦屏县", "address": "贵州省黔东南苗族侗族自治州锦屏县G242", "name": "锦屏县杉乡苗绣有限公司", "lng": 109.25034, "lat": 26.659066},
{"province": "贵州省", "city": "黔东南苗族侗族自治州", "area": "凯里市", "address": "贵州省黔东南苗族侗族自治州凯里市刺绣文化街", "name": "黔东南州阿科里绣娘农民专业合作社", "lng": 107.980214, "lat": 26.560557},
{"province": "贵州省", "city": "黔东南苗族侗族自治州", "area": "凯里市", "address": "贵州省黔东南苗族侗族自治州凯里欣家坡坡顶563号", "name": "黔东南阿绣娘民族服饰有限公司", "lng": 108.004304, "lat": 26.573537},
{"province": "贵州省", "city": "黔东南苗族侗族自治州", "area": "凯里市", "address": "贵州省黔东南苗族侗族自治州凯里市鸭塘街道风情园笙鼓路20号", "name": "贵州古苗疆刺绣工贸有限公司", "lng": 107.981533, "lat": 26.560887},
{"province": "贵州省", "city": "黔东南苗族侗族自治州", "area": "麻江县", "address": "黔东南苗族侗族自治州麻江县", "name": "贵州绣娘卡乌苗乡工坊", "lng": 107.823234, "lat": 26.41468},
{"province": "贵州省", "city": "黔东南苗族侗族自治州", "area": "丹寨县", "address": "贵州省黔东南苗族侗族自治州丹寨县兴仁镇,农贸市场", "name": "丽丽苗装苗布厂锦绣计划", "lng": 107.820984, "lat": 26.319403},
{"province": "贵州省", "city": "黔东南苗族侗族自治州", "area": "黄平县", "address": "贵州省黔东南苗族侗族自治州黄平县旧州镇马家巷9号", "name": "苗岭民族服饰店", "lng": 107.786444, "lat": 26.995057},
{"province": "贵州省", "city": "黔东南苗族侗族自治州", "area": "黄平县", "address": "黔东南苗族侗族自治州黄平县长征路黄平县旧州镇中心小学北侧约90米", "name": "家秀苗装", "lng": 107.786627, "lat": 26.995469},
{"province": "贵州省", "city": "黔东南苗族侗族自治州", "area": "凯里市", "address": "贵州省黔东南苗族侗族自治州凯里市大十字街道新加坡坡顶496号", "name": "黔民绣花厂", "lng": 108.00252, "lat": 26.574578},
{"province": "贵州省", "city": "黔东南苗族侗族自治州", "area": "凯里市", "address": "贵州省黔东南苗族侗族自治州凯里市大十字街道新加坡坡顶496号", "name": "黔民绣花厂", "lng": 108.00252, "lat": 26.574578},
{"province": "贵州省", "city": "黔东南苗族侗族自治州", "area": "雷山县", "address": "贵州省黔东南苗族侗族自治州雷山县西江镇营上村西街27栋1-1号", "name": "苗韵风采民族服饰博物馆", "lng": 108.168531, "lat": 26.499814}
]